{
    "type": "FeatureCollection",
    "features": [
        {"type":"Feature","properties":{"name":"New Delhi (NDLS)"},"geometry":{"type":"Point","coordinates":[77.2219,28.6415]}},
        {"type":"Feature","properties":{"name":"Ghaziabad (GZB)"},"geometry":{"type":"Point","coordinates":[77.4498,28.6676]}},
        {"type":"Feature","properties":{"name":"Moradabad (MB)"},"geometry":{"type":"Point","coordinates":[78.7733,28.8386]}},
        {"type":"Feature","properties":{"name":"Bareilly (BE)"},"geometry":{"type":"Point","coordinates":[79.4152,28.3640]}},
        {"type":"Feature","properties":{"name":"Lucknow (LKO)"},"geometry":{"type":"Point","coordinates":[80.9231,26.8393]}},
        {"type":"Feature","properties":{"name":"Rae Bareli (RBL)"},"geometry":{"type":"Point","coordinates":[81.2331,26.2309]}},
        {"type":"Feature","properties":{"name":"Pratapgarh (PBH)"},"geometry":{"type":"Point","coordinates":[81.9837,25.8973]}},
        {"type":"Feature","properties":{"name":"Varanasi (BSB)"},"geometry":{"type":"Point","coordinates":[82.9739,25.3176]}},
        {"type":"Feature","properties":{"name":"Pt. Deen Dayal Upadhyaya Jn (DDU)"},"geometry":{"type":"Point","coordinates":[83.5174,25.2916]}},
        {"type":"Feature","properties":{"name":"Buxar (BXR)"},"geometry":{"type":"Point","coordinates":[83.9777,25.5647]}},
        {"type":"Feature","properties":{"name":"Ara (ARA)"},"geometry":{"type":"Point","coordinates":[84.6672,25.5571]}},
        {"type":"Feature","properties":{"name":"Patna (PNBE)"},"geometry":{"type":"Point","coordinates":[85.1376,25.6022]}},
        {"type":"Feature","properties":{"name":"Bakhtiyarpur (BKP)"},"geometry":{"type":"Point","coordinates":[85.5332,25.4622]}},
        {"type":"Feature","properties":{"name":"Mokama (MKA)"},"geometry":{"type":"Point","coordinates":[85.9196,25.3948]}},
        {"type":"Feature","properties":{"name":"Kiul (KIUL)"},"geometry":{"type":"Point","coordinates":[86.1035,25.1720]}},
        {"type":"Feature","properties":{"name":"Jhajha (JAJ)"},"geometry":{"type":"Point","coordinates":[86.3871,24.7726]}},
        {"type":"Feature","properties":{"name":"Jasidih (JSME)"},"geometry":{"type":"Point","coordinates":[86.6413,24.5139]}},
        {"type":"Feature","properties":{"name":"Madhupur (MDP)"},"geometry":{"type":"Point","coordinates":[86.6390,24.2740]}},
        {"type":"Feature","properties":{"name":"Asansol (ASN)"},"geometry":{"type":"Point","coordinates":[86.9663,23.6890]}},
        {"type":"Feature","properties":{"name":"Durgapur (DGR)"},"geometry":{"type":"Point","coordinates":[87.3080,23.5204]}},
        {"type":"Feature","properties":{"name":"Barddhaman (BWN)"},"geometry":{"type":"Point","coordinates":[87.8634,23.2324]}},
        {"type":"Feature","properties":{"name":"Howrah (HWH)"},"geometry":{"type":"Point","coordinates":[88.3426,22.5826]}}
    ]
}